City_ID,City,Country,Date,Lat,Lng,Weather,Weather Description,Max Temp,Humidity,Cloudiness,Wind Speed,Rain,Snow
0,Zunheboto,IN,2020-02-23 03:09:50,25.97,94.52,Rain,light rain,66.76,57,100,0.47,0.31,0.0
1,Innisfail,AU,2020-02-23 03:09:50,-17.53,146.03,Rain,moderate rain,83.52,83,100,5.03,3.13,0.0
2,Tuban,ID,2020-02-23 03:09:51,-6.9,112.06,Rain,light rain,84.27,77,54,8.03,1.13,0.0
3,Cape Town,ZA,2020-02-23 03:02:40,-33.93,18.42,Clear,clear sky,64.99,72,0,6.93,0.0,0.0
4,Carnarvon,AU,2020-02-23 03:05:52,-24.87,113.63,Clear,clear sky,82.4,58,0,8.05,0.0,0.0
5,Rikitea,PF,2020-02-23 03:05:35,-23.12,-134.97,Clouds,few clouds,79.86,66,12,6.15,0.0,0.0
6,Port Alfred,ZA,2020-02-23 03:05:44,-33.59,26.89,Clouds,few clouds,62.01,85,16,1.99,0.0,0.0
7,Avarua,CK,2020-02-23 03:04:29,-21.21,-159.78,Rain,light rain,84.2,83,98,6.93,0.81,0.0
8,Punta Arenas,CL,2020-02-23 03:01:08,-53.15,-70.92,Clouds,few clouds,51.8,66,20,17.22,0.0,0.0
9,Tuktoyaktuk,CA,2020-02-23 03:00:57,69.45,-133.04,Snow,light snow,1.4,84,90,3.36,0.0,0.0
10,Cidreira,BR,2020-02-23 03:09:52,-30.18,-50.21,Rain,light rain,70.12,64,3,6.67,0.13,0.0
11,Lorengau,PG,2020-02-23 03:07:10,-2.02,147.27,Clear,clear sky,83.62,67,0,3.71,0.0,0.0
12,Nara,JP,2020-02-23 03:09:53,34.69,135.8,Clouds,few clouds,52.0,40,20,14.99,0.0,0.0
13,Toba,JP,2020-02-23 03:09:53,34.48,136.85,Rain,shower rain,51.01,57,75,21.92,0.0,0.0
14,Pevek,RU,2020-02-23 03:09:53,69.7,170.31,Snow,light snow,-10.39,96,100,10.27,0.0,0.13
15,Victoria,HK,2020-02-23 03:05:01,22.29,114.16,Clouds,few clouds,71.01,52,20,13.87,0.0,0.0
16,Egvekinot,RU,2020-02-23 03:09:53,66.32,-179.17,Clouds,scattered clouds,-29.78,99,25,2.37,0.0,0.0
17,Saskylakh,RU,2020-02-23 03:05:56,71.92,114.08,Snow,light snow,5.07,95,100,9.22,0.0,0.38
18,Torbay,CA,2020-02-23 03:06:38,47.67,-52.73,Snow,light shower snow,28.99,79,90,18.34,0.0,0.0
19,Puerto Escondido,MX,2020-02-23 03:09:54,15.85,-97.07,Clear,clear sky,82.4,88,5,6.93,0.0,0.0
20,Jamestown,US,2020-02-23 03:02:26,42.1,-79.24,Clear,clear sky,37.99,43,1,9.17,0.0,0.0
21,Tamboril,DO,2020-02-23 03:09:54,19.49,-70.61,Clouds,broken clouds,77.0,100,75,4.7,0.0,0.0
22,Dumas,US,2020-02-23 03:09:55,35.87,-101.97,Clouds,scattered clouds,60.8,53,40,9.17,0.0,0.0
23,Vaini,TO,2020-02-23 03:05:53,-21.2,-175.2,Clouds,scattered clouds,84.2,79,40,13.87,0.0,0.0
24,Berlevag,NO,2020-02-23 03:08:24,70.86,29.09,Clear,clear sky,34.02,79,0,26.31,0.0,0.0
25,Tabas,IR,2020-02-23 03:09:55,33.6,56.92,Clear,clear sky,53.6,54,0,2.24,0.0,0.0
26,Komsomolskiy,UZ,2020-02-23 03:01:53,40.43,71.72,Mist,mist,41.0,86,63,4.7,0.0,0.0
27,Hermanus,ZA,2020-02-23 03:05:55,-34.42,19.23,Clear,clear sky,62.01,88,0,4.0,0.0,0.0
28,Port Elizabeth,ZA,2020-02-23 03:01:46,-33.92,25.57,Clouds,few clouds,57.2,87,20,6.93,0.0,0.0
29,Klaksvik,FO,2020-02-23 03:05:35,62.23,-6.59,Snow,light snow,35.6,69,100,1.12,0.0,1.31
30,Bireun,ID,2020-02-23 03:09:57,5.2,96.7,Clouds,few clouds,75.9,73,19,3.06,0.0,0.0
31,Saint-Philippe,RE,2020-02-23 03:06:01,-21.36,55.77,Rain,light rain,75.2,60,100,6.93,0.31,0.0
32,Busselton,AU,2020-02-23 03:00:48,-33.65,115.33,Clouds,overcast clouds,84.99,33,99,10.38,0.0,0.0
33,Tasiilaq,GL,2020-02-23 03:07:11,65.61,-37.64,Clear,clear sky,14.0,78,0,1.12,0.0,0.0
34,Honningsvag,NO,2020-02-23 03:09:57,70.98,25.97,Clouds,overcast clouds,32.94,79,100,20.33,0.0,0.0
35,Ancud,CL,2020-02-23 03:01:47,-41.87,-73.82,Clear,clear sky,57.2,71,0,5.82,0.0,0.0
36,Barrow,US,2020-02-23 03:01:03,71.29,-156.79,Clear,clear sky,-14.8,75,1,6.93,0.0,0.0
37,Sao Joao Da Barra,BR,2020-02-23 03:08:18,-21.64,-41.05,Rain,light rain,73.72,91,100,3.42,2.19,0.0
38,Pacific Grove,US,2020-02-23 03:09:59,36.62,-121.92,Clouds,broken clouds,54.0,81,75,10.29,0.0,0.0
39,Hobart,AU,2020-02-23 03:05:42,-42.88,147.33,Clouds,few clouds,73.99,49,20,14.99,0.0,0.0
40,Castro,BR,2020-02-23 03:05:52,-24.79,-50.01,Clouds,broken clouds,57.97,90,79,9.42,0.0,0.0
41,Albany,US,2020-02-23 03:05:02,42.6,-73.97,Clear,clear sky,30.0,68,1,3.36,0.0,0.0
42,New Norfolk,AU,2020-02-23 03:05:34,-42.78,147.06,Clouds,few clouds,73.99,49,20,14.99,0.0,0.0
43,High Level,CA,2020-02-23 03:08:08,58.52,-117.14,Clouds,overcast clouds,35.6,47,90,8.05,0.0,0.0
44,Namibe,AO,2020-02-23 03:10:00,-15.2,12.15,Clouds,broken clouds,75.56,77,84,12.39,0.0,0.0
45,Vila Do Maio,CV,2020-02-23 03:10:00,15.13,-23.22,Clouds,overcast clouds,69.8,73,100,19.46,0.0,0.0
46,Kawhia,NZ,2020-02-23 03:10:01,-38.07,174.82,Clouds,broken clouds,73.99,46,56,17.0,0.0,0.0
47,Pundaguitan,PH,2020-02-23 03:08:38,6.37,126.17,Clear,clear sky,80.58,76,7,9.13,0.0,0.0
48,Bushehr,IR,2020-02-23 03:10:01,28.97,50.84,Clear,clear sky,61.61,54,0,2.95,0.0,0.0
49,Longyearbyen,SJ,2020-02-23 03:01:34,78.22,15.64,Clouds,few clouds,-2.2,77,20,10.29,0.0,0.0
50,Manbij,SY,2020-02-23 03:10:02,36.53,37.95,Mist,mist,42.8,93,75,3.36,0.0,0.0
51,Halifax,CA,2020-02-23 03:05:42,44.65,-63.57,Clear,clear sky,30.99,68,5,9.17,0.0,0.0
52,Bethel,US,2020-02-23 03:10:02,41.37,-73.41,Clear,clear sky,37.99,63,5,4.23,0.0,0.0
53,Dryden,CA,2020-02-23 03:10:02,49.78,-92.75,Clouds,broken clouds,30.2,58,75,2.24,0.0,0.0
54,Belogorsk,RU,2020-02-23 03:10:03,50.92,128.46,Clouds,overcast clouds,8.56,91,90,5.23,0.0,0.0
55,Vostok,RU,2020-02-23 03:10:03,46.49,135.88,Clouds,overcast clouds,15.19,88,93,6.89,0.0,0.0
56,Ketchikan,US,2020-02-23 03:10:03,55.34,-131.65,Clouds,overcast clouds,41.0,93,90,16.11,0.0,0.0
57,Kruisfontein,ZA,2020-02-23 03:10:03,-34.0,24.73,Rain,light rain,55.51,83,28,1.88,0.13,0.0
58,Cherskiy,RU,2020-02-23 03:10:03,68.75,161.3,Clouds,overcast clouds,-17.18,94,94,5.64,0.0,0.0
59,Tiksi,RU,2020-02-23 03:05:58,71.69,128.87,Clouds,overcast clouds,-10.32,92,98,5.93,0.0,0.0
60,Bereda,ES,2020-02-23 03:10:04,43.27,-7.54,Fog,fog,46.99,100,90,4.7,0.0,0.0
61,Port Blair,IN,2020-02-23 03:05:35,11.67,92.75,Clouds,overcast clouds,81.57,77,100,15.39,0.0,0.0
62,Georgetown,MY,2020-02-23 03:05:00,5.41,100.34,Clouds,few clouds,86.0,66,20,6.93,0.0,0.0
63,Ushuaia,AR,2020-02-23 03:03:01,-54.8,-68.3,Clouds,broken clouds,51.8,62,75,29.97,0.0,0.0
64,Provideniya,RU,2020-02-23 03:10:05,64.38,-173.3,Clear,clear sky,-9.22,82,0,2.42,0.0,0.0
65,Asau,RO,2020-02-23 03:10:05,46.43,26.4,Clouds,overcast clouds,36.0,74,100,8.05,0.0,0.0
66,Puerto Ayora,EC,2020-02-23 03:01:29,-0.74,-90.35,Rain,light rain,78.01,100,67,4.61,0.94,0.0
67,Corvallis,US,2020-02-23 03:07:49,44.56,-123.26,Clouds,overcast clouds,48.2,100,90,6.93,0.0,0.0
68,Teahupoo,PF,2020-02-23 03:10:06,-17.83,-149.27,Rain,shower rain,86.0,70,40,10.29,0.0,0.0
69,Batagay,RU,2020-02-23 03:10:06,67.63,134.63,Clouds,overcast clouds,-4.79,92,94,1.66,0.0,0.0
70,Soyo,AO,2020-02-23 03:06:47,-6.13,12.37,Rain,light rain,81.03,90,100,7.52,0.25,0.0
71,Tual,ID,2020-02-23 03:10:06,-5.67,132.75,Rain,light rain,82.72,76,53,14.67,1.44,0.0
72,Kirensk,RU,2020-02-23 03:10:06,57.79,108.11,Clouds,overcast clouds,17.15,93,100,4.99,0.0,0.0
73,Kapaa,US,2020-02-23 03:05:41,22.08,-159.32,Clouds,scattered clouds,78.8,61,40,8.05,0.0,0.0
74,Lata,PT,2020-02-23 03:07:32,40.16,-8.33,Mist,mist,57.99,93,0,2.24,0.0,0.0
75,Port Hardy,CA,2020-02-23 03:10:07,50.7,-127.42,Clouds,overcast clouds,41.0,86,90,11.41,0.0,0.0
76,Jepelacio,PE,2020-02-23 03:10:07,-6.12,-76.95,Rain,light rain,66.58,98,100,2.04,0.94,0.0
77,Sao Felix Do Xingu,BR,2020-02-23 03:10:08,-6.64,-51.99,Rain,light rain,73.0,96,100,0.76,0.56,0.0
78,Butaritari,KI,2020-02-23 03:05:58,3.07,172.79,Rain,light rain,84.38,77,41,12.08,1.13,0.0
79,Ust-Maya,RU,2020-02-23 03:10:08,60.42,134.53,Clouds,overcast clouds,6.22,92,95,2.51,0.0,0.0
80,Ilulissat,GL,2020-02-23 03:10:09,69.22,-51.1,Clouds,overcast clouds,1.4,45,100,13.87,0.0,0.0
81,Grand-Santi,GF,2020-02-23 03:10:09,4.25,-54.38,Rain,light rain,73.94,98,34,5.14,0.69,0.0
82,Bluff,NZ,2020-02-23 03:02:10,-46.6,168.33,Clouds,broken clouds,61.0,77,70,15.01,0.0,0.0
83,Constitucion,CL,2020-02-23 03:10:09,-35.33,-72.42,Clouds,few clouds,51.35,92,16,3.13,0.0,0.0
84,Cascais,PT,2020-02-23 03:10:09,38.7,-9.42,Clouds,scattered clouds,62.01,66,29,1.12,0.0,0.0
85,Katsuura,JP,2020-02-23 03:10:10,35.13,140.3,Clouds,few clouds,59.0,26,20,6.93,0.0,0.0
86,Las Vegas,US,2020-02-23 03:10:02,36.17,-115.14,Clouds,overcast clouds,53.6,93,90,5.82,0.0,0.0
87,Zhigansk,RU,2020-02-23 03:10:10,66.77,123.37,Snow,light snow,-6.93,96,100,8.95,0.0,0.25
88,Casper,US,2020-02-23 03:10:10,42.87,-106.31,Clear,clear sky,32.0,64,1,16.11,0.0,0.0
89,Chapais,CA,2020-02-23 03:10:11,49.78,-74.85,Clouds,broken clouds,28.4,63,75,8.05,0.0,0.0
90,Flin Flon,CA,2020-02-23 03:07:52,54.77,-101.86,Clouds,overcast clouds,30.47,95,100,6.62,0.0,0.0
91,Cabo San Lucas,MX,2020-02-23 03:07:25,22.89,-109.91,Clouds,broken clouds,75.2,38,75,11.41,0.0,0.0
92,Yellowknife,CA,2020-02-23 03:01:20,62.46,-114.35,Clouds,broken clouds,0.0,64,75,5.82,0.0,0.0
93,Sikonge,TZ,2020-02-23 03:10:12,-5.63,32.77,Clouds,few clouds,66.2,100,20,3.96,0.0,0.0
94,Guerrero Negro,MX,2020-02-23 03:10:12,27.98,-114.06,Clouds,broken clouds,59.5,75,82,18.92,0.0,0.0
95,Marsa Matruh,EG,2020-02-23 03:01:26,31.35,27.25,Rain,light rain,57.49,70,91,17.94,1.63,0.0
96,Portland,US,2020-02-23 03:07:38,45.52,-122.68,Clouds,overcast clouds,50.0,66,90,4.7,0.0,0.0
97,Kahului,US,2020-02-23 03:08:50,20.89,-156.47,Clouds,scattered clouds,82.4,51,40,6.93,0.0,0.0
98,Kalmunai,LK,2020-02-23 03:10:13,7.42,81.82,Rain,light rain,80.42,81,100,17.49,1.0,0.0
99,Ardon,RU,2020-02-23 03:10:13,43.17,44.29,Clouds,overcast clouds,33.8,75,90,1.16,0.0,0.0
100,Pisco,PE,2020-02-23 03:10:13,-13.7,-76.22,Clouds,broken clouds,75.2,88,75,12.75,0.0,0.0
101,Novyy Urengoy,RU,2020-02-23 03:10:13,66.08,76.63,Clouds,overcast clouds,13.73,91,100,19.1,0.0,0.0
102,Bambous Virieux,MU,2020-02-23 03:07:17,-20.34,57.76,Rain,shower rain,75.99,100,40,2.24,0.0,0.0
103,Varna,BG,2020-02-23 03:10:14,43.22,27.92,Clear,clear sky,32.0,100,0,2.24,0.0,0.0
104,Krasnoselkup,RU,2020-02-23 03:10:14,65.7,82.47,Clouds,scattered clouds,4.66,88,44,18.63,0.0,0.0
105,Luba,GQ,2020-02-23 03:10:14,3.46,8.55,Clouds,few clouds,82.4,88,20,6.93,0.0,0.0
106,Sarakhs,IR,2020-02-23 03:10:14,36.54,61.16,Clouds,scattered clouds,44.6,93,40,10.65,0.0,0.0
107,Barcelona,ES,2020-02-23 03:09:07,41.39,2.16,Clouds,overcast clouds,55.0,81,99,9.17,0.0,0.0
108,East London,ZA,2020-02-23 03:10:15,-33.02,27.91,Rain,light rain,67.21,67,92,17.0,0.25,0.0
109,Khatanga,RU,2020-02-23 03:10:15,71.97,102.5,Clouds,overcast clouds,11.23,78,100,16.13,0.0,0.0
110,Billings,US,2020-02-23 03:09:56,45.78,-108.5,Clear,clear sky,39.2,35,1,14.99,0.0,0.0
111,Pauini,BR,2020-02-23 03:10:15,-7.71,-66.98,Clouds,overcast clouds,73.47,99,100,2.33,0.0,0.0
112,Olinda,BR,2020-02-23 03:07:19,-8.01,-34.86,Clouds,scattered clouds,84.2,74,40,4.7,0.0,0.0
113,Russellville,US,2020-02-23 03:10:16,35.28,-93.13,Clouds,scattered clouds,46.4,49,40,5.82,0.0,0.0
114,Kodiak,US,2020-02-23 03:05:48,57.79,-152.41,Snow,light snow,19.4,67,90,12.75,0.0,0.25
115,Pontianak,ID,2020-02-23 03:10:16,-0.03,109.33,Clouds,overcast clouds,86.2,66,98,3.09,0.0,0.0
116,Imeni Poliny Osipenko,RU,2020-02-23 03:10:16,52.42,136.49,Clear,clear sky,12.61,75,0,3.87,0.0,0.0
117,Kavieng,PG,2020-02-23 03:05:43,-2.57,150.8,Clear,clear sky,84.52,70,0,9.89,0.0,0.0
118,Arraial Do Cabo,BR,2020-02-23 03:05:40,-22.97,-42.03,Rain,light rain,74.1,81,100,14.97,1.06,0.0
119,Virginia Beach,US,2020-02-23 03:05:49,36.85,-75.98,Clear,clear sky,43.0,65,1,11.16,0.0,0.0
120,Nabire,ID,2020-02-23 03:10:17,-3.37,135.48,Clouds,broken clouds,90.66,54,78,3.78,0.0,0.0
121,Leningradskiy,RU,2020-02-23 03:06:01,69.38,178.42,Clouds,overcast clouds,-12.05,95,100,6.04,0.0,0.0
122,Thompson,CA,2020-02-23 03:03:00,55.74,-97.86,Clouds,scattered clouds,21.2,62,40,3.36,0.0,0.0
123,Ruhengeri,RW,2020-02-23 03:10:18,-1.5,29.64,Clouds,overcast clouds,53.31,89,100,2.13,0.0,0.0
124,Diamantino,BR,2020-02-23 03:10:18,-14.41,-56.45,Clouds,overcast clouds,67.6,98,100,3.15,0.0,0.0
125,Sao Jose De Ribamar,BR,2020-02-23 03:10:18,-2.56,-44.05,Rain,light rain,75.2,94,75,11.41,0.0,0.0
126,Nanortalik,GL,2020-02-23 03:08:00,60.14,-45.24,Snow,snow,25.9,83,100,18.19,0.0,1.81
127,Atuona,PF,2020-02-23 03:05:45,-9.8,-139.03,Clear,clear sky,81.77,77,0,12.37,0.0,0.0
128,Ponta Do Sol,PT,2020-02-23 03:05:33,32.67,-17.1,Clouds,few clouds,70.0,72,20,20.8,0.0,0.0
129,Deputatskiy,RU,2020-02-23 03:10:19,69.3,139.9,Clouds,overcast clouds,-7.67,96,97,1.23,0.0,0.0
130,Smolenka,RU,2020-02-23 03:10:19,52.14,113.5,Clear,clear sky,21.2,62,6,6.71,0.0,0.0
131,Saldanha,ZA,2020-02-23 03:05:43,-33.01,17.94,Clear,clear sky,64.4,63,0,9.17,0.0,0.0
132,Tuatapere,NZ,2020-02-23 03:05:56,-46.13,167.68,Clouds,scattered clouds,61.0,77,40,15.01,0.0,0.0
133,Nome,US,2020-02-23 03:07:44,64.5,-165.41,Clouds,few clouds,-5.8,76,20,6.93,0.0,0.0
134,Santiago Del Estero,AR,2020-02-23 03:07:34,-27.8,-64.26,Clouds,scattered clouds,65.01,43,48,7.09,0.0,0.0
135,Ruidoso,US,2020-02-23 03:07:18,33.33,-105.67,Rain,moderate rain,59.0,66,75,13.87,2.03,0.0
136,Hilo,US,2020-02-23 03:07:00,19.73,-155.09,Clear,clear sky,80.6,54,1,10.29,0.0,0.0
137,Ribeira Grande,PT,2020-02-23 03:05:54,38.52,-28.7,Clear,clear sky,53.44,80,8,10.07,0.0,0.0
138,Knysna,ZA,2020-02-23 03:10:21,-34.04,23.05,Rain,light rain,59.0,87,70,3.36,0.25,0.0
139,Lazaro Cardenas,MX,2020-02-23 03:08:15,17.96,-102.2,Clear,clear sky,74.05,87,0,1.86,0.0,0.0
140,Luderitz,NA,2020-02-23 03:10:22,-26.65,15.16,Clear,clear sky,66.2,77,0,12.75,0.0,0.0
141,Bredasdorp,ZA,2020-02-23 03:05:53,-34.53,20.04,Clouds,few clouds,62.6,72,21,5.82,0.0,0.0
142,Mataura,NZ,2020-02-23 03:05:49,-46.19,168.86,Clouds,broken clouds,61.0,77,75,15.01,0.0,0.0
143,Poyarkovo,RU,2020-02-23 03:10:23,49.6,128.68,Clear,clear sky,16.25,84,0,4.59,0.0,0.0
144,Derzhavinsk,KZ,2020-02-23 03:10:23,51.1,66.32,Clouds,overcast clouds,21.06,94,100,2.3,0.0,0.0
145,Dunyapur,PK,2020-02-23 03:08:06,29.8,71.72,Mist,mist,57.2,87,0,3.4,0.0,0.0
146,Maniitsoq,GL,2020-02-23 03:10:24,65.42,-52.9,Clouds,overcast clouds,9.55,62,89,8.39,0.0,0.0
147,Nouadhibou,MR,2020-02-23 03:09:21,20.93,-17.03,Clouds,broken clouds,62.6,82,75,10.29,0.0,0.0
148,Srednekolymsk,RU,2020-02-23 03:05:43,67.45,153.68,Clouds,broken clouds,-17.55,93,54,1.54,0.0,0.0
149,Saint George,US,2020-02-23 03:05:37,37.1,-113.58,Rain,moderate rain,45.0,81,90,10.29,1.02,0.0
150,Qaanaaq,GL,2020-02-23 03:05:47,77.48,-69.36,Clouds,overcast clouds,-13.34,83,98,2.57,0.0,0.0
151,Yilan,TW,2020-02-23 03:10:25,24.76,121.75,Clouds,broken clouds,73.4,68,75,18.34,0.0,0.0
152,Samarai,PG,2020-02-23 03:10:25,-10.62,150.67,Rain,light rain,85.93,77,37,4.72,1.75,0.0
153,Capao Bonito,BR,2020-02-23 03:10:25,-24.01,-48.35,Clouds,broken clouds,59.77,88,55,8.88,0.0,0.0
154,Ossora,RU,2020-02-23 03:10:25,59.24,163.07,Clouds,few clouds,0.39,79,21,1.43,0.0,0.0
155,Nurlat,RU,2020-02-23 03:10:26,54.43,50.81,Clouds,scattered clouds,18.88,92,41,12.41,0.0,0.0
156,Aksu,CN,2020-02-23 03:08:14,41.12,80.26,Clear,clear sky,37.24,42,0,2.59,0.0,0.0
157,Mackay,AU,2020-02-23 03:10:26,-21.15,149.2,Clouds,overcast clouds,82.4,78,90,17.22,0.0,0.0
158,Hay River,CA,2020-02-23 03:10:26,60.82,-115.8,Clouds,broken clouds,6.8,77,75,2.24,0.0,0.0
159,Gaurnadi,BD,2020-02-23 03:10:27,22.97,90.23,Clouds,scattered clouds,77.83,37,27,2.59,0.0,0.0
160,Upernavik,GL,2020-02-23 03:05:39,72.79,-56.15,Clouds,scattered clouds,-13.61,91,42,2.84,0.0,0.0
161,Manuk Mangkaw,PH,2020-02-23 03:10:27,4.8,119.85,Clouds,overcast clouds,83.07,72,100,8.08,0.0,0.0
162,Tura,IN,2020-02-23 03:10:28,25.52,90.22,Clouds,overcast clouds,77.29,39,100,4.03,0.0,0.0
163,Cordoba,AR,2020-02-23 03:09:43,-31.41,-64.18,Clouds,broken clouds,64.0,82,57,10.29,0.0,0.0
164,Waitara,NZ,2020-02-23 03:10:28,-38.92,174.25,Rain,light rain,64.99,69,99,13.0,0.38,0.0
165,Baruun-Urt,MN,2020-02-23 03:10:28,46.68,113.28,Clouds,few clouds,18.61,81,14,6.42,0.0,0.0
166,Nikolskoye,RU,2020-02-23 03:10:28,59.7,30.79,Clouds,overcast clouds,39.2,84,90,15.66,0.0,0.0
167,Dikson,RU,2020-02-23 03:00:55,73.51,80.55,Snow,light snow,18.16,93,100,22.24,0.0,0.69
168,Faanui,PF,2020-02-23 03:05:54,-16.48,-151.75,Clouds,broken clouds,83.26,69,51,8.03,0.0,0.0
169,Tanhacu,BR,2020-02-23 03:10:29,-14.02,-41.25,Rain,light rain,77.5,82,100,2.71,1.69,0.0
170,Ixtapa,MX,2020-02-23 03:08:35,20.7,-105.2,Clouds,few clouds,78.8,83,20,6.93,0.0,0.0
171,Luanda,AO,2020-02-23 03:10:29,-8.84,13.23,Clouds,broken clouds,77.0,94,75,3.36,0.0,0.0
172,Esna,EG,2020-02-23 03:10:30,25.29,32.55,Clouds,overcast clouds,49.51,46,97,6.11,0.0,0.0
173,Segou,ML,2020-02-23 03:10:30,13.43,-6.22,Clear,clear sky,75.65,12,0,9.51,0.0,0.0
174,Obuasi,GH,2020-02-23 03:10:31,6.21,-1.66,Clouds,overcast clouds,76.87,91,86,1.63,0.0,0.0
175,Great Yarmouth,GB,2020-02-23 03:10:31,52.61,1.73,Rain,light rain,46.99,93,100,12.75,0.0,0.0
176,Lisa,RO,2020-02-23 03:10:32,43.8,25.13,Clouds,few clouds,35.6,80,20,6.93,0.0,0.0
177,Kodinsk,RU,2020-02-23 03:10:32,58.69,99.18,Clear,clear sky,14.36,91,0,2.21,0.0,0.0
178,Bandarbeyla,SO,2020-02-23 03:10:32,9.49,50.81,Clouds,broken clouds,76.69,75,61,17.36,0.0,0.0
179,Nurota,UZ,2020-02-23 03:07:08,40.56,65.69,Mist,mist,39.2,93,100,6.71,0.0,0.0
180,Hambantota,LK,2020-02-23 03:10:32,6.12,81.12,Clouds,broken clouds,78.8,94,75,11.41,0.0,0.0
181,Umm Lajj,SA,2020-02-23 03:10:33,25.02,37.27,Clouds,scattered clouds,57.76,50,44,6.24,0.0,0.0
182,Vila Franca Do Campo,PT,2020-02-23 03:10:33,37.72,-25.43,Clouds,broken clouds,57.2,76,75,5.82,0.0,0.0
183,Sur,OM,2020-02-23 03:08:19,22.57,59.53,Clear,clear sky,67.87,72,2,2.68,0.0,0.0
184,Pangnirtung,CA,2020-02-23 03:10:34,66.15,-65.71,Clouds,broken clouds,-33.81,95,56,3.78,0.0,0.0
185,Necochea,AR,2020-02-23 03:10:34,-38.55,-58.74,Clear,clear sky,53.01,94,0,4.0,0.0,0.0
186,Yulara,AU,2020-02-23 03:10:34,-25.24,130.99,Clear,clear sky,89.6,11,0,13.87,0.0,0.0
187,Airai,TL,2020-02-23 03:05:48,-8.93,125.41,Clear,clear sky,83.41,54,0,3.94,0.0,0.0
188,Chute-Aux-Outardes,CA,2020-02-23 03:10:35,49.12,-68.4,Clear,clear sky,30.2,86,1,26.4,0.0,0.0
189,Nazarovo,RU,2020-02-23 03:10:35,56.01,90.39,Clouds,broken clouds,12.42,95,63,2.13,0.0,0.0
190,Broome,US,2020-02-23 03:01:51,42.25,-75.83,Clear,clear sky,30.99,85,1,4.7,0.0,0.0
191,Kloulklubed,PW,2020-02-23 03:07:46,7.04,134.26,Clouds,overcast clouds,82.4,83,90,13.87,0.0,0.0
192,Ahipara,NZ,2020-02-23 03:10:36,-35.17,173.17,Clouds,few clouds,67.26,67,13,21.94,0.0,0.0
193,Platnirovskaya,RU,2020-02-23 03:10:36,45.4,39.38,Rain,light intensity shower rain,37.4,93,75,11.18,0.0,0.0
194,Alice Springs,AU,2020-02-23 03:10:36,-23.7,133.88,Clear,clear sky,91.4,13,0,14.99,0.0,0.0
195,Bengkulu,ID,2020-02-23 03:10:37,-3.8,102.27,Clear,clear sky,87.21,55,0,2.89,0.0,0.0
196,Longyan,CN,2020-02-23 03:10:37,25.11,117.02,Clouds,broken clouds,68.4,69,67,2.17,0.0,0.0
197,Ballina,AU,2020-02-23 03:07:38,-28.87,153.57,Rain,light rain,77.0,73,100,14.99,0.44,0.0
198,Los Llanos De Aridane,ES,2020-02-23 03:10:37,28.66,-17.92,Clouds,overcast clouds,73.4,46,100,14.99,0.0,0.0
199,Matagami,CA,2020-02-23 03:05:49,49.75,-77.63,Clouds,overcast clouds,33.8,64,90,8.05,0.0,0.0
200,Atar,MR,2020-02-23 03:05:38,20.52,-13.05,Clouds,overcast clouds,72.7,12,100,2.24,0.0,0.0
201,Alta,NO,2020-02-23 03:10:38,69.97,23.27,Clouds,few clouds,28.4,73,20,6.93,0.0,0.0
202,Koslan,RU,2020-02-23 03:10:38,63.46,48.9,Snow,light snow,30.58,87,100,17.85,0.0,0.25
203,Mahebourg,MU,2020-02-23 03:03:41,-20.41,57.7,Rain,shower rain,75.99,100,40,2.24,0.0,0.0
204,Ponta Delgada,PT,2020-02-23 03:10:39,37.73,-25.67,Clouds,broken clouds,57.2,76,75,5.82,0.0,0.0
205,Mount Isa,AU,2020-02-23 03:07:06,-20.73,139.5,Clouds,scattered clouds,89.6,52,40,12.75,0.0,0.0
206,Passo De Camaragibe,BR,2020-02-23 03:10:39,-9.24,-35.49,Clouds,few clouds,77.0,94,20,2.24,0.0,0.0
207,Vao,NC,2020-02-23 03:10:39,-22.67,167.48,Clear,clear sky,79.02,76,8,14.29,0.0,0.0
208,Taruma,BR,2020-02-23 03:10:40,-22.75,-50.58,Clouds,few clouds,65.23,91,21,6.44,0.0,0.0
209,Oldmeldrum,GB,2020-02-23 03:10:40,57.33,-2.32,Clouds,scattered clouds,37.4,59,33,17.22,0.0,0.0
210,Lompoc,US,2020-02-23 03:09:52,34.64,-120.46,Clouds,scattered clouds,57.2,76,40,4.7,0.0,0.0
211,Flinders,AU,2020-02-23 03:07:23,-34.58,150.86,Clouds,broken clouds,78.8,57,75,10.29,0.0,0.0
212,Lavrentiya,RU,2020-02-23 03:10:41,65.58,-171.0,Clear,clear sky,-15.34,94,0,4.21,0.0,0.0
213,Chokurdakh,RU,2020-02-23 03:05:37,70.63,147.92,Clouds,overcast clouds,-12.05,96,100,1.39,0.0,0.0
214,Balaghat,IN,2020-02-23 03:10:41,21.8,80.18,Clear,clear sky,73.45,54,0,2.08,0.0,0.0
215,Kyzyl-Suu,KG,2020-02-23 03:10:41,42.34,78.0,Clear,clear sky,29.95,59,0,6.51,0.0,0.0
216,Hithadhoo,MV,2020-02-23 03:10:42,-0.6,73.08,Clouds,overcast clouds,83.25,79,100,17.49,0.0,0.0
217,Sitka,US,2020-02-23 03:10:42,57.05,-135.33,Clouds,overcast clouds,35.6,69,90,12.75,0.0,0.0
218,Teguldet,RU,2020-02-23 03:10:42,57.31,88.17,Clouds,broken clouds,19.99,96,82,1.57,0.0,0.0
219,Dunedin,NZ,2020-02-23 03:09:57,-45.87,170.5,Clouds,overcast clouds,64.99,56,95,7.0,0.0,0.0
220,Tezu,IN,2020-02-23 03:10:43,27.92,96.17,Rain,light rain,67.51,51,100,1.77,0.5,0.0
221,Temir,KZ,2020-02-23 03:10:43,49.14,57.13,Clouds,broken clouds,11.35,97,68,6.78,0.0,0.0
222,College,US,2020-02-23 03:05:34,64.86,-147.8,Snow,snow,8.6,77,90,4.7,0.0,0.51
223,Yeppoon,AU,2020-02-23 03:10:43,-23.13,150.73,Clouds,broken clouds,80.6,78,75,12.75,0.0,0.0
224,Poso,ID,2020-02-23 03:10:44,-1.4,120.75,Rain,light rain,74.07,81,93,3.78,0.75,0.0
225,Tazovskiy,RU,2020-02-23 03:10:44,67.47,78.7,Snow,light snow,18.0,91,100,19.26,0.0,0.13
226,Rocha,UY,2020-02-23 03:10:44,-34.48,-54.33,Clear,clear sky,51.8,91,0,0.98,0.0,0.0
227,North Myrtle Beach,US,2020-02-23 03:07:11,33.82,-78.68,Clear,clear sky,41.0,86,1,0.6,0.0,0.0
228,Biak,ID,2020-02-23 03:10:45,-0.91,122.88,Rain,light rain,85.17,70,100,10.13,0.56,0.0
229,Coihaique,CL,2020-02-23 03:05:35,-45.58,-72.07,Clear,clear sky,64.4,36,6,3.36,0.0,0.0
230,Port Hedland,AU,2020-02-23 03:10:45,-20.32,118.57,Clear,clear sky,93.2,38,9,8.05,0.0,0.0
231,Kumluca,TR,2020-02-23 03:10:45,36.37,30.29,Clouds,scattered clouds,43.11,77,37,6.44,0.0,0.0
232,Sorland,NO,2020-02-23 03:10:46,67.67,12.69,Clouds,overcast clouds,38.25,71,100,28.54,0.0,0.0
233,Norman Wells,CA,2020-02-23 03:10:46,65.28,-126.83,Snow,light snow,5.0,84,75,2.24,0.0,0.0
234,Poum,NC,2020-02-23 03:08:17,-20.23,164.02,Clouds,scattered clouds,80.56,78,31,15.64,0.0,0.0
235,Lyuban,BY,2020-02-23 03:10:46,52.8,28.0,Rain,light rain,40.66,79,100,18.07,0.13,0.0
236,Ola,RU,2020-02-23 03:10:47,59.58,151.28,Clouds,overcast clouds,0.57,86,100,1.43,0.0,0.0
237,Saint-Francois,FR,2020-02-23 03:10:47,46.42,3.91,Clouds,overcast clouds,41.0,86,100,2.64,0.0,0.0
238,Kattivakkam,IN,2020-02-23 03:10:47,13.22,80.32,Haze,haze,82.4,69,40,9.17,0.0,0.0
239,Bilibino,RU,2020-02-23 03:10:47,68.05,166.44,Clouds,overcast clouds,-19.82,95,100,2.55,0.0,0.0
240,Babu,CN,2020-02-23 03:10:47,24.42,111.52,Clouds,few clouds,68.32,70,24,2.26,0.0,0.0
241,Quimper,FR,2020-02-23 03:10:48,48.0,-4.1,Drizzle,light intensity drizzle rain,50.0,100,90,14.99,0.0,0.0
242,Yenagoa,NG,2020-02-23 03:06:34,4.92,6.26,Clouds,broken clouds,78.76,87,59,3.42,0.0,0.0
243,Gusinoye Ozero,RU,2020-02-23 03:10:48,51.11,106.26,Clouds,overcast clouds,16.25,86,100,4.72,0.0,0.0
244,Republic,US,2020-02-23 03:10:49,37.12,-93.48,Clear,clear sky,48.2,45,1,5.82,0.0,0.0
245,Severo-Kurilsk,RU,2020-02-23 03:10:49,50.68,156.12,Clouds,overcast clouds,18.55,85,100,12.68,0.0,0.0
246,Sabinas,MX,2020-02-23 03:10:49,27.85,-101.12,Clouds,overcast clouds,55.78,69,100,17.52,0.0,0.0
247,Bacolod,PH,2020-02-23 03:10:11,10.67,122.95,Clear,clear sky,85.35,51,0,10.4,0.0,0.0
248,Freeport,US,2020-02-23 03:10:49,40.66,-73.58,Clear,clear sky,44.6,25,1,15.61,0.0,0.0
249,Pathein,MM,2020-02-23 03:08:04,16.78,94.73,Clear,clear sky,85.35,40,0,4.59,0.0,0.0
250,Makakilo City,US,2020-02-23 03:10:50,21.35,-158.09,Clear,clear sky,80.6,57,1,9.17,0.0,0.0
251,Arequipa,PE,2020-02-23 03:07:36,-16.4,-71.53,Rain,moderate rain,53.6,100,90,3.36,0.0,0.0
252,Dromolaxia,CY,2020-02-23 03:10:51,34.88,33.59,Clouds,broken clouds,51.8,93,75,4.7,0.0,0.0
253,Pangoa,PE,2020-02-23 03:10:51,-12.12,-73.0,Rain,moderate rain,69.12,100,100,1.79,3.75,0.0
254,Izumo,JP,2020-02-23 03:10:51,35.37,132.77,Clouds,broken clouds,50.0,52,75,16.11,0.0,0.0
255,Cauquenes,CL,2020-02-23 03:10:52,-35.97,-72.32,Clear,clear sky,51.85,81,0,1.39,0.0,0.0
256,Codrington,AU,2020-02-23 03:10:52,-38.27,141.97,Clear,clear sky,62.46,74,0,10.89,0.0,0.0
257,Hornepayne,CA,2020-02-23 03:10:52,49.21,-84.77,Clouds,broken clouds,28.8,92,73,9.24,0.0,0.0
258,Lashio,MM,2020-02-23 03:08:03,22.93,97.75,Clouds,scattered clouds,79.0,40,41,1.57,0.0,0.0
259,La Paz,BO,2020-02-23 03:09:22,-16.5,-68.15,Fog,fog,46.4,93,75,2.24,0.0,0.0
260,Changji,CN,2020-02-23 03:10:53,44.02,87.32,Clouds,overcast clouds,28.4,68,100,2.24,0.0,0.0
261,Najran,SA,2020-02-23 03:08:05,17.49,44.13,Clouds,scattered clouds,62.6,39,44,2.26,0.0,0.0
262,Cabedelo,BR,2020-02-23 03:10:53,-6.98,-34.83,Clouds,few clouds,80.6,88,20,4.7,0.0,0.0
263,Marawi,PH,2020-02-23 03:10:53,8.0,124.29,Clear,clear sky,81.0,76,0,8.01,0.0,0.0
264,Pedasi,PA,2020-02-23 03:10:53,7.53,-80.03,Clouds,broken clouds,78.71,76,73,23.47,0.0,0.0
265,Korhogo,CI,2020-02-23 03:10:54,9.45,-5.63,Clear,clear sky,75.02,15,0,3.22,0.0,0.0
266,Alofi,NU,2020-02-23 03:10:54,-19.06,-169.92,Clouds,broken clouds,84.2,79,75,12.75,0.0,0.0
267,Callaguip,PH,2020-02-23 03:10:54,18.07,120.49,Clouds,few clouds,84.2,51,20,4.7,0.0,0.0
268,Suntar,RU,2020-02-23 03:10:54,62.14,117.63,Snow,light snow,5.36,92,94,0.67,0.0,0.13
269,Salalah,OM,2020-02-23 03:09:10,17.02,54.09,Clouds,few clouds,71.6,78,20,4.7,0.0,0.0
270,Shubarkuduk,KZ,2020-02-23 03:10:55,49.14,56.49,Clouds,scattered clouds,12.4,95,25,7.54,0.0,0.0
271,Kalianget,ID,2020-02-23 03:10:56,-7.05,113.93,Rain,light rain,83.62,78,100,12.17,1.69,0.0
272,Sola,VU,2020-02-23 03:10:57,-13.88,167.55,Clouds,overcast clouds,82.81,77,98,14.74,0.0,0.0
273,Urumqi,CN,2020-02-23 03:05:41,43.8,87.6,Clouds,overcast clouds,28.4,68,100,2.24,0.0,0.0
274,Conceicao Da Barra,BR,2020-02-23 03:10:57,-18.59,-39.73,Rain,moderate rain,80.98,83,100,12.41,8.13,0.0
275,Skelleftea,SE,2020-02-23 03:05:58,64.75,20.95,Clouds,overcast clouds,33.8,74,100,16.11,0.0,0.0
276,Half Moon Bay,US,2020-02-23 03:10:58,37.46,-122.43,Haze,haze,54.0,81,75,5.82,0.0,0.0
277,Jerome,US,2020-02-23 03:10:58,42.72,-114.52,Clear,clear sky,37.4,51,1,11.41,0.0,0.0
278,Kralendijk,BQ,2020-02-23 03:07:52,12.15,-68.27,Clouds,overcast clouds,78.8,78,100,9.17,0.0,0.0
279,Ust-Shonosha,RU,2020-02-23 03:10:58,61.15,41.34,Snow,light snow,31.93,92,100,20.56,0.0,1.06
280,Lima,PE,2020-02-23 03:09:25,-12.04,-77.03,Clouds,broken clouds,75.2,83,75,10.29,0.0,0.0
281,Acarau,BR,2020-02-23 03:10:59,-2.89,-40.12,Clouds,overcast clouds,73.72,94,100,2.33,0.0,0.0
282,Moerai,PF,2020-02-23 03:10:59,-22.43,-151.33,Clouds,overcast clouds,81.48,68,100,6.26,0.0,0.0
283,Ust-Ishim,RU,2020-02-23 03:10:59,57.69,71.17,Clear,clear sky,3.16,97,0,2.3,0.0,0.0
284,Liku,ID,2020-02-23 03:11:00,-0.73,119.89,Rain,light rain,79.45,78,100,3.29,0.63,0.0
285,Zhezkazgan,KZ,2020-02-23 03:11:00,47.8,67.71,Fog,fog,17.6,92,90,6.71,0.0,0.0
286,Almaznyy,RU,2020-02-23 03:11:00,48.04,40.05,Fog,fog,32.0,99,90,4.47,0.0,0.0
287,Gamovo,RU,2020-02-23 03:11:00,57.87,56.11,Clouds,overcast clouds,28.4,86,100,6.71,0.0,0.0
288,Kyabe,TD,2020-02-23 03:11:00,9.45,18.94,Clear,clear sky,76.87,12,9,7.05,0.0,0.0
289,Viedma,AR,2020-02-23 03:11:01,-40.81,-63.0,Clear,clear sky,64.85,39,0,13.87,0.0,0.0
290,Samastipur,IN,2020-02-23 03:11:01,25.85,85.78,Clouds,overcast clouds,70.2,64,100,2.15,0.0,0.0
291,Atambua,ID,2020-02-23 03:11:01,-9.11,124.89,Clear,clear sky,83.1,70,0,5.79,0.0,0.0
292,Inuvik,CA,2020-02-23 03:08:03,68.35,-133.72,Snow,light snow,-0.4,77,90,3.36,0.0,0.0
293,Atbasar,KZ,2020-02-23 03:11:02,51.8,68.33,Clouds,broken clouds,14.81,96,84,3.8,0.0,0.0
294,Porto Novo,BJ,2020-02-23 03:11:02,6.5,2.6,Clouds,few clouds,84.2,89,20,10.29,0.0,0.0
295,Pljevlja,ME,2020-02-23 03:11:02,43.33,19.33,Clouds,broken clouds,33.8,55,82,8.05,0.0,0.0
296,Sarangani,PH,2020-02-23 03:11:03,5.4,125.46,Clouds,scattered clouds,81.27,74,26,25.43,0.0,0.0
297,Estelle,US,2020-02-23 03:11:03,29.85,-90.11,Clear,clear sky,53.6,81,1,3.36,0.0,0.0
298,Kiruna,SE,2020-02-23 03:11:03,67.86,20.23,Clouds,broken clouds,17.6,92,81,9.17,0.0,0.0
299,Salamanca,ES,2020-02-23 03:11:03,40.83,-6.0,Clear,clear sky,39.99,86,10,5.55,0.0,0.0
300,Longfeng,CN,2020-02-23 03:11:04,46.55,125.12,Clouds,overcast clouds,21.04,85,100,11.72,0.0,0.0
301,Yar-Sale,RU,2020-02-23 03:06:00,66.83,70.83,Clouds,broken clouds,21.52,92,73,16.93,0.0,0.0
302,Toora-Khem,RU,2020-02-23 03:11:04,52.47,96.11,Clouds,overcast clouds,15.73,92,100,2.15,0.0,0.0
303,Chuy,UY,2020-02-23 03:01:42,-33.7,-53.46,Clear,clear sky,59.22,88,0,4.97,0.0,0.0
304,Raduzhnyy,RU,2020-02-23 03:11:05,62.1,77.47,Clouds,broken clouds,4.86,84,64,8.99,0.0,0.0
305,Abdanan,IR,2020-02-23 03:11:05,32.99,47.42,Clouds,overcast clouds,50.74,61,88,4.12,0.0,0.0
306,Talnakh,RU,2020-02-23 03:05:54,69.49,88.4,Snow,snow,8.6,84,75,31.32,0.0,0.0
307,Canon City,US,2020-02-23 03:11:06,38.44,-105.24,Clouds,overcast clouds,48.2,42,90,6.93,0.0,0.0
308,Minab,IR,2020-02-23 03:11:06,27.15,57.08,Mist,mist,68.0,82,40,9.17,0.0,0.0
309,Almeirim,BR,2020-02-23 03:11:06,-1.52,-52.58,Rain,moderate rain,75.27,97,100,3.44,4.19,0.0
310,Mareeba,AU,2020-02-23 03:11:06,-17.0,145.43,Clouds,scattered clouds,86.0,79,40,3.36,0.0,0.0
311,Plouzane,FR,2020-02-23 03:11:07,48.38,-4.62,Drizzle,light intensity drizzle,51.8,93,90,23.04,0.0,0.0
312,Prado,BR,2020-02-23 03:11:07,-17.34,-39.22,Clouds,overcast clouds,81.16,84,100,15.52,0.0,0.0
313,Maningrida,AU,2020-02-23 03:11:08,-12.07,134.27,Rain,light rain,88.3,71,4,15.48,0.38,0.0
314,Bellefontaine,US,2020-02-23 03:10:55,40.36,-83.76,Clear,clear sky,37.4,68,1,6.93,0.0,0.0
315,Mitu,CO,2020-02-23 03:11:08,1.2,-70.17,Clouds,scattered clouds,74.71,96,39,2.73,0.0,0.0
316,Lebu,CL,2020-02-23 03:05:45,-37.62,-73.65,Clear,clear sky,50.9,97,5,3.33,0.0,0.0
317,Preobrazheniye,RU,2020-02-23 03:11:09,42.9,133.91,Clear,clear sky,25.75,56,0,5.82,0.0,0.0
318,Tocopilla,CL,2020-02-23 03:11:09,-22.09,-70.2,Clouds,scattered clouds,62.33,81,38,1.54,0.0,0.0
319,Longkou,CN,2020-02-23 03:11:09,37.65,120.33,Clear,clear sky,45.95,43,0,15.66,0.0,0.0
320,Kindu,CD,2020-02-23 03:11:09,-2.95,25.95,Rain,light rain,72.05,98,100,2.86,2.81,0.0
321,Andros Town,BS,2020-02-23 03:11:10,24.7,-77.77,Clouds,scattered clouds,70.0,68,40,14.99,0.0,0.0
322,Itarsi,IN,2020-02-23 03:11:10,22.62,77.75,Clear,clear sky,70.47,43,0,4.74,0.0,0.0
323,Lagoa,PT,2020-02-23 03:11:10,39.05,-27.98,Clear,clear sky,58.55,77,0,13.73,0.0,0.0
324,Saint-Augustin,CA,2020-02-23 03:07:27,51.23,-58.65,Clouds,overcast clouds,22.41,91,91,20.69,0.0,0.0
325,Noumea,NC,2020-02-23 03:11:10,-22.28,166.46,Clouds,scattered clouds,89.6,55,40,14.99,0.0,0.0
326,Kars,TR,2020-02-23 03:11:11,40.6,43.09,Fog,fog,32.0,100,90,2.24,0.0,0.0
327,Leshukonskoye,RU,2020-02-23 03:06:23,64.9,45.76,Snow,light snow,31.87,94,100,18.99,0.0,0.38
328,Irbeyskoye,RU,2020-02-23 03:11:11,55.64,95.45,Clouds,broken clouds,15.64,94,79,0.58,0.0,0.0
329,Chiredzi,ZW,2020-02-23 03:11:11,-21.05,31.67,Clear,clear sky,74.01,82,7,2.8,0.0,0.0
330,Matara,LK,2020-02-23 03:11:11,5.95,80.54,Clouds,overcast clouds,81.5,64,100,8.16,0.0,0.0
331,Santa Isabel Do Rio Negro,BR,2020-02-23 03:11:05,-0.41,-65.02,Clouds,overcast clouds,78.91,75,100,3.2,0.0,0.0
332,Iroquois Falls,CA,2020-02-23 03:11:12,48.77,-80.68,Clear,clear sky,35.6,55,5,6.93,0.0,0.0
333,Bonfim,BR,2020-02-23 03:11:13,3.08,-59.95,Clouds,broken clouds,82.9,44,68,5.46,0.0,0.0
334,Nishihara,JP,2020-02-23 03:11:13,26.18,127.76,Clouds,few clouds,68.0,52,20,14.99,0.0,0.0
335,Panaba,MX,2020-02-23 03:11:13,21.28,-88.27,Clouds,scattered clouds,69.33,68,47,8.66,0.0,0.0
336,Yanam,IN,2020-02-23 03:11:13,16.73,82.22,Mist,mist,69.8,88,0,6.93,0.0,0.0
337,Copiapo,CL,2020-02-23 03:11:14,-27.37,-70.33,Clear,clear sky,62.6,82,0,9.17,0.0,0.0
338,Lincoln,US,2020-02-23 03:08:05,40.8,-96.67,Clear,clear sky,46.0,85,1,3.36,0.0,0.0
339,Zhangye,CN,2020-02-23 03:11:14,38.93,100.45,Clear,clear sky,48.87,12,0,3.56,0.0,0.0
340,Toledo,ES,2020-02-23 03:11:14,39.83,-4.0,Clouds,scattered clouds,48.99,55,34,6.8,0.0,0.0
341,Sao Filipe,CV,2020-02-23 03:05:40,14.9,-24.5,Clouds,overcast clouds,68.05,80,100,12.15,0.0,0.0
342,Geraldton,AU,2020-02-23 03:06:00,-28.77,114.6,Clouds,scattered clouds,86.0,48,40,10.29,0.0,0.0
343,Rakovnik,CZ,2020-02-23 03:11:15,50.1,13.73,Clouds,broken clouds,50.0,70,75,23.04,0.0,0.0
344,Phalombe,MW,2020-02-23 03:11:15,-15.81,35.65,Clouds,overcast clouds,67.73,92,100,3.09,0.0,0.0
345,Eyl,SO,2020-02-23 03:11:15,7.98,49.82,Clouds,overcast clouds,77.0,76,100,21.47,0.0,0.0
346,Katobu,ID,2020-02-23 03:11:16,-4.94,122.53,Rain,light rain,84.63,80,4,4.79,3.0,0.0
347,Vanavara,RU,2020-02-23 03:06:36,60.34,102.28,Clouds,overcast clouds,14.25,93,93,4.32,0.0,0.0
348,Hirara,JP,2020-02-23 03:11:16,24.8,125.28,Clouds,broken clouds,71.6,68,75,14.99,0.0,0.0
349,Isangel,VU,2020-02-23 03:11:16,-19.55,169.27,Clouds,few clouds,84.2,79,20,16.04,0.0,0.0
350,Shirgaon,IN,2020-02-23 03:11:16,19.7,72.7,Haze,haze,71.6,73,0,15.5,0.0,0.0
351,Rehli,IN,2020-02-23 03:11:17,23.63,79.08,Clear,clear sky,67.14,46,0,6.17,0.0,0.0
352,Havoysund,NO,2020-02-23 03:05:46,71.0,24.66,Clouds,overcast clouds,32.0,69,91,11.41,0.0,0.0
353,Fortuna,US,2020-02-23 03:11:17,40.6,-124.16,Clouds,overcast clouds,50.0,93,90,8.05,0.0,0.0
354,Eureka,US,2020-02-23 03:07:21,40.8,-124.16,Clouds,overcast clouds,50.0,87,90,6.93,0.0,0.0
355,Gorontalo,ID,2020-02-23 03:11:17,0.54,123.06,Clouds,broken clouds,90.27,51,51,2.08,0.0,0.0
356,Plettenberg Bay,ZA,2020-02-23 03:11:18,-34.05,23.37,Rain,light rain,61.68,76,73,7.72,0.25,0.0
357,Hailun,CN,2020-02-23 03:11:18,47.45,126.93,Clouds,overcast clouds,11.03,94,100,8.99,0.0,0.0
358,Udpura,IN,2020-02-23 03:11:18,24.72,75.97,Clear,clear sky,64.06,62,0,5.48,0.0,0.0
359,Nioro,GM,2020-02-23 03:11:18,13.35,-15.75,Clouds,overcast clouds,73.76,38,100,7.76,0.0,0.0
360,Mlalo,TZ,2020-02-23 03:11:19,-4.93,38.93,Clouds,overcast clouds,78.39,80,91,10.0,0.0,0.0
361,Macon,US,2020-02-23 03:11:19,39.87,-88.97,Clear,clear sky,39.2,51,1,11.41,0.0,0.0
362,Itarema,BR,2020-02-23 03:11:19,-2.92,-39.92,Clouds,overcast clouds,73.72,94,100,2.33,0.0,0.0
363,Esperance,AU,2020-02-23 03:06:02,-33.87,121.9,Clouds,scattered clouds,78.8,57,40,5.82,0.0,0.0
364,Lugovoy,KZ,2020-02-23 03:11:20,42.95,72.76,Clouds,few clouds,32.65,89,22,3.02,0.0,0.0
365,Solnechnyy,RU,2020-02-23 03:11:22,50.72,136.63,Clear,clear sky,18.16,80,0,3.65,0.0,0.0
366,Haines Junction,CA,2020-02-23 03:11:23,60.75,-137.51,Clouds,few clouds,7.05,87,18,7.31,0.0,0.0
367,Sol-Iletsk,RU,2020-02-23 03:11:23,51.16,54.99,Clouds,broken clouds,13.84,95,71,6.06,0.0,0.0
368,Malartic,CA,2020-02-23 03:11:23,48.13,-78.13,Clouds,overcast clouds,33.8,92,90,13.87,0.0,0.0
369,Siocon,PH,2020-02-23 03:11:23,7.71,122.14,Clear,clear sky,80.76,73,0,11.32,0.0,0.0
370,Kaitangata,NZ,2020-02-23 03:11:24,-46.28,169.85,Clouds,overcast clouds,63.0,59,94,4.0,0.0,0.0
371,Tofield,CA,2020-02-23 03:11:24,53.37,-112.67,Clear,clear sky,28.0,53,1,10.29,0.0,0.0
372,Gushikawa,JP,2020-02-23 03:11:24,26.35,127.87,Clouds,few clouds,68.0,52,20,14.99,0.0,0.0
373,Nybro,SE,2020-02-23 03:11:24,56.74,15.91,Clouds,scattered clouds,39.99,71,37,21.92,0.0,0.0
374,Kargasok,RU,2020-02-23 03:11:24,59.06,80.86,Clear,clear sky,-1.25,91,0,4.59,0.0,0.0
375,North Bend,US,2020-02-23 03:07:56,43.41,-124.22,Clouds,scattered clouds,48.99,93,40,5.82,0.0,0.0
376,Veraval,IN,2020-02-23 03:11:25,20.9,70.37,Clear,clear sky,76.03,27,0,15.97,0.0,0.0
377,Oksfjord,NO,2020-02-23 03:11:25,70.24,22.35,Clouds,broken clouds,32.0,73,65,11.41,0.0,0.0
378,Ocos,GT,2020-02-23 03:11:25,14.51,-92.19,Clear,clear sky,78.8,74,5,1.01,0.0,0.0
379,Kaeo,NZ,2020-02-23 03:11:25,-35.1,173.78,Clouds,broken clouds,69.4,60,80,8.37,0.0,0.0
380,Richards Bay,ZA,2020-02-23 03:10:04,-28.78,32.04,Rain,light rain,79.32,73,100,32.1,1.25,0.0
381,Dzaoudzi,YT,2020-02-23 03:11:26,-12.79,45.27,Rain,moderate rain,82.4,83,100,13.87,3.81,0.0
382,Maria Aurora,PH,2020-02-23 03:11:26,15.8,121.47,Clear,clear sky,76.35,55,4,5.59,0.0,0.0
383,Ormara,PK,2020-02-23 03:11:26,25.21,64.64,Clear,clear sky,74.21,59,0,7.85,0.0,0.0
384,Clyde River,CA,2020-02-23 03:03:05,70.47,-68.59,Clear,clear sky,-29.2,66,1,3.36,0.0,0.0
385,Peniche,PT,2020-02-23 03:08:27,39.36,-9.38,Clouds,few clouds,59.0,66,22,1.12,0.0,0.0
386,Orbetello,IT,2020-02-23 03:11:27,42.44,11.22,Clouds,scattered clouds,46.99,93,41,1.12,0.0,0.0
387,Buzmeyin,TM,2020-02-23 03:11:27,38.05,58.21,Clouds,broken clouds,46.4,87,75,6.93,0.0,0.0
388,Samarinda,ID,2020-02-23 03:10:34,-0.5,117.15,Clear,clear sky,89.64,51,0,6.06,0.0,0.0
389,Moss Vale,AU,2020-02-23 03:10:00,-34.55,150.38,Clouds,broken clouds,78.8,57,75,10.29,0.0,0.0
390,Arlit,NE,2020-02-23 03:11:28,18.74,7.39,Clouds,broken clouds,72.59,15,62,19.48,0.0,0.0
391,Kabare,CD,2020-02-23 03:11:28,-2.47,28.82,Clouds,overcast clouds,59.67,94,100,1.19,0.0,0.0
392,Fairbanks,US,2020-02-23 03:06:31,64.84,-147.72,Clouds,overcast clouds,8.6,71,90,12.75,0.0,0.0
393,Mangrol,IN,2020-02-23 03:07:44,21.12,70.12,Clear,clear sky,74.75,46,0,15.19,0.0,0.0
394,Sabinas Hidalgo,MX,2020-02-23 03:11:29,26.5,-100.17,Clouds,broken clouds,58.8,72,66,10.65,0.0,0.0
395,Ambulu,ID,2020-02-23 03:05:55,-8.35,113.61,Clear,clear sky,82.4,71,0,2.48,0.0,0.0
396,Pascagoula,US,2020-02-23 03:11:30,30.37,-88.56,Clear,clear sky,46.4,100,1,2.53,0.0,0.0
397,Camacha,PT,2020-02-23 03:11:30,33.08,-16.33,Clouds,scattered clouds,64.4,82,40,26.4,0.0,0.0
398,Henties Bay,NA,2020-02-23 03:11:31,-22.12,14.28,Clouds,scattered clouds,63.0,91,39,3.0,0.0,0.0
399,Ilhabela,BR,2020-02-23 03:11:31,-23.78,-45.36,Rain,light rain,75.15,68,100,9.26,0.44,0.0
400,Zhaotong,CN,2020-02-23 03:08:33,27.32,103.72,Clouds,scattered clouds,50.86,70,48,5.03,0.0,0.0
401,Kamenka,RU,2020-02-23 03:11:32,51.32,42.77,Clouds,broken clouds,30.0,95,62,8.99,0.0,0.0
402,Blagoyevo,RU,2020-02-23 03:11:32,63.37,47.92,Snow,light snow,30.97,89,100,18.68,0.0,0.31
403,Tiznit,MA,2020-02-23 03:11:32,29.58,-9.5,Clear,clear sky,63.37,20,0,32.82,0.0,0.0
404,Christchurch,NZ,2020-02-23 03:09:49,-43.53,172.63,Clear,clear sky,71.01,49,0,9.17,0.0,0.0
405,Nalut,LY,2020-02-23 03:11:33,30.33,10.85,Clear,clear sky,43.7,88,0,9.1,0.0,0.0
406,Mayo,US,2020-02-23 03:11:33,38.89,-76.51,Clear,clear sky,42.8,74,1,5.77,0.0,0.0
407,Samana,DO,2020-02-23 03:11:33,19.21,-69.34,Rain,light rain,68.41,97,30,0.43,0.94,0.0
408,Shitanjing,CN,2020-02-23 03:11:33,39.23,106.34,Clouds,broken clouds,42.51,21,59,2.1,0.0,0.0
409,Tiarei,PF,2020-02-23 03:11:34,-17.53,-149.33,Rain,shower rain,86.0,70,40,10.29,0.0,0.0
410,Dutse,NG,2020-02-23 03:08:05,11.76,9.34,Clear,clear sky,66.7,17,0,8.55,0.0,0.0
411,Aripuana,BR,2020-02-23 03:11:34,-9.17,-60.63,Clouds,overcast clouds,72.43,98,100,1.81,0.0,0.0
412,Oistins,BB,2020-02-23 03:11:34,13.07,-59.53,Clouds,scattered clouds,77.0,83,40,6.93,0.0,0.0
413,Novo Aripuana,BR,2020-02-23 03:11:34,-5.12,-60.38,Clouds,overcast clouds,74.75,90,100,2.13,0.0,0.0
414,Beringovskiy,RU,2020-02-23 03:11:35,63.05,179.32,Clear,clear sky,-8.12,93,0,4.23,0.0,0.0
415,Matnog,PH,2020-02-23 03:11:35,12.59,124.09,Clear,clear sky,79.43,78,0,20.69,0.0,0.0
416,Kampong Thum,KH,2020-02-23 03:11:35,12.71,104.89,Clouds,few clouds,87.19,31,20,12.59,0.0,0.0
417,Praia Da Vitoria,PT,2020-02-23 03:11:35,38.73,-27.07,Clouds,scattered clouds,55.4,82,40,8.03,0.0,0.0
418,Padang,ID,2020-02-23 03:11:36,-0.95,100.35,Clear,clear sky,78.33,62,0,7.67,0.0,0.0
419,Abengourou,CI,2020-02-23 03:11:36,6.73,-3.5,Clouds,broken clouds,75.31,93,56,2.1,0.0,0.0
420,Eagle Pass,US,2020-02-23 03:06:56,28.71,-100.5,Clouds,overcast clouds,60.8,55,90,8.05,0.0,0.0
421,San Cristobal,VE,2020-02-23 03:08:30,7.77,-72.22,Haze,haze,80.6,69,75,3.36,0.0,0.0
422,Mananara,MG,2020-02-23 03:07:06,-16.17,49.77,Rain,light rain,80.02,80,100,8.72,0.63,0.0
423,Grand Gaube,MU,2020-02-23 03:05:50,-20.01,57.66,Rain,shower rain,75.99,100,40,2.24,0.0,0.0
424,Chipinge,ZW,2020-02-23 03:11:37,-20.19,32.62,Clouds,overcast clouds,67.55,89,100,3.42,0.0,0.0
425,Jaslo,PL,2020-02-23 03:11:37,49.75,21.47,Clouds,overcast clouds,48.99,60,90,16.11,0.0,0.0
426,Senekal,ZA,2020-02-23 03:11:37,-28.32,27.62,Rain,light rain,60.31,91,4,5.68,0.88,0.0
427,Moroni,KM,2020-02-23 03:11:38,-11.7,43.26,Rain,light rain,84.4,76,100,9.6,0.38,0.0
428,Inirida,CO,2020-02-23 03:07:37,3.87,-67.92,Rain,light rain,77.07,88,66,1.95,0.44,0.0
429,Panama City,PA,2020-02-23 03:08:35,8.99,-79.52,Clouds,overcast clouds,80.01,78,100,8.05,0.0,0.0
430,Avera,US,2020-02-23 03:11:38,33.19,-82.53,Clear,clear sky,42.01,100,1,2.91,0.0,0.0
431,Vaitape,PF,2020-02-23 03:11:39,-16.52,-151.75,Clouds,broken clouds,83.26,69,51,8.03,0.0,0.0
432,Banda Aceh,ID,2020-02-23 03:11:39,5.56,95.32,Clear,clear sky,83.62,66,2,6.24,0.0,0.0
433,Xichang,CN,2020-02-23 03:11:39,27.9,102.26,Clear,clear sky,48.69,64,7,9.1,0.0,0.0
434,Wajima,JP,2020-02-23 03:11:39,37.4,136.9,Clouds,broken clouds,41.0,52,75,17.22,0.0,0.0
435,Quelimane,MZ,2020-02-23 03:11:40,-17.88,36.89,Clouds,overcast clouds,73.62,90,100,4.23,0.0,0.0
436,Lovozero,RU,2020-02-23 03:11:40,68.0,35.01,Snow,light snow,27.72,95,100,7.36,0.0,0.88
437,Nazilli,TR,2020-02-23 03:11:40,37.92,28.32,Clouds,broken clouds,30.7,85,63,8.43,0.0,0.0
438,Ngunguru,NZ,2020-02-23 03:11:40,-35.62,174.5,Clouds,scattered clouds,72.99,51,33,11.97,0.0,0.0
439,Ler,SS,2020-02-23 03:11:40,8.3,30.14,Clouds,broken clouds,72.79,16,84,4.99,0.0,0.0
440,Tena,EC,2020-02-23 03:11:41,-0.98,-77.82,Rain,moderate rain,63.27,97,100,3.33,6.25,0.0
441,Mana,GF,2020-02-23 03:11:41,5.66,-53.78,Clouds,scattered clouds,73.96,98,25,3.04,0.0,0.0
442,Holme,DK,2020-02-23 03:11:41,56.11,10.17,Rain,light rain,41.0,75,27,27.51,0.0,0.0
443,Pskov,RU,2020-02-23 03:11:41,57.81,28.35,Rain,light intensity shower rain,37.4,84,98,13.42,0.0,0.0
444,Zeya,RU,2020-02-23 03:11:41,53.75,127.27,Clouds,overcast clouds,3.79,89,99,3.74,0.0,0.0
445,Stornoway,GB,2020-02-23 03:11:42,58.21,-6.39,Clear,clear sky,39.2,72,10,19.46,0.0,0.0
446,Keelung,TW,2020-02-23 03:11:42,25.13,121.74,Clouds,broken clouds,73.4,68,75,18.34,0.0,0.0
447,Kenai,US,2020-02-23 03:11:42,60.55,-151.26,Clouds,broken clouds,19.4,79,75,4.7,0.0,0.0
448,Akaltara,IN,2020-02-23 03:11:43,22.02,82.43,Clear,clear sky,75.42,39,0,7.74,0.0,0.0
449,Hualmay,PE,2020-02-23 03:07:45,-11.1,-77.61,Clouds,overcast clouds,74.17,65,97,3.13,0.0,0.0
450,Birin,NP,2020-02-23 03:11:43,26.89,88.07,Clear,clear sky,55.67,56,0,2.8,0.0,0.0
451,Nichinan,JP,2020-02-23 03:11:43,31.6,131.37,Clear,clear sky,57.2,26,0,8.05,0.0,0.0
452,Kavaratti,IN,2020-02-23 03:11:43,10.57,72.64,Clouds,overcast clouds,81.93,74,95,5.82,0.0,0.0
453,Istanbul,TR,2020-02-23 03:10:50,41.04,28.98,Clouds,scattered clouds,44.01,80,32,8.05,0.0,0.0
454,Ilebo,CD,2020-02-23 03:11:44,-4.32,20.58,Rain,light rain,71.22,98,87,0.54,0.69,0.0
455,Hami,CN,2020-02-23 03:11:44,42.8,93.45,Clear,clear sky,33.55,47,0,3.24,0.0,0.0
456,Russell,US,2020-02-23 03:11:44,32.35,-85.2,Clear,clear sky,44.6,80,1,1.92,0.0,0.0
457,Deseronto,CA,2020-02-23 03:11:44,44.2,-77.05,Clear,clear sky,35.6,83,5,8.05,0.0,0.0
458,Woodstock,CA,2020-02-23 03:08:21,43.13,-80.75,Clear,clear sky,35.01,69,5,10.29,0.0,0.0
459,Omsukchan,RU,2020-02-23 03:11:46,62.53,155.8,Clouds,overcast clouds,-8.12,81,99,1.92,0.0,0.0
460,Port Pirie,AU,2020-02-23 03:11:46,-33.18,138.02,Clear,clear sky,84.2,32,0,8.05,0.0,0.0
461,Buraydah,SA,2020-02-23 03:11:46,26.33,43.98,Clear,clear sky,55.4,54,0,12.75,0.0,0.0
462,Nisia Floresta,BR,2020-02-23 03:11:47,-6.09,-35.21,Clouds,scattered clouds,80.6,88,40,3.36,0.0,0.0
463,Mar Del Plata,AR,2020-02-23 03:04:18,-38.0,-57.56,Clear,clear sky,61.0,87,0,8.3,0.0,0.0
464,Huarmey,PE,2020-02-23 03:11:47,-10.07,-78.15,Clouds,overcast clouds,74.57,61,99,1.9,0.0,0.0
465,Abeokuta,NG,2020-02-23 03:11:47,7.15,3.35,Clouds,scattered clouds,82.4,94,40,3.31,0.0,0.0
466,Gwembe,ZM,2020-02-23 03:11:48,-16.5,27.61,Rain,light rain,66.65,91,94,1.97,0.88,0.0
467,Upata,VE,2020-02-23 03:11:49,8.01,-62.4,Clouds,broken clouds,72.09,87,52,3.36,0.0,0.0
468,Alghero,IT,2020-02-23 03:11:49,40.56,8.32,Clear,clear sky,48.0,100,0,3.36,0.0,0.0
469,Buala,SB,2020-02-23 03:11:49,-8.14,159.59,Rain,light rain,83.71,75,80,3.47,2.63,0.0
470,Luwuk,ID,2020-02-23 03:11:50,-0.95,122.79,Rain,light rain,85.17,70,100,10.13,0.56,0.0
471,Asfi,MA,2020-02-23 03:11:50,32.3,-9.24,Clear,clear sky,58.98,49,0,6.42,0.0,0.0
472,Yarmouth,US,2020-02-23 03:10:02,41.71,-70.23,Clear,clear sky,39.2,60,1,5.82,0.0,0.0
473,Golden,US,2020-02-23 03:09:12,39.76,-105.22,Clear,clear sky,46.4,69,1,2.84,0.0,0.0
474,Okhotsk,RU,2020-02-23 03:02:57,59.38,143.3,Clouds,few clouds,-2.42,86,21,2.86,0.0,0.0
475,Bud,US,2020-02-23 03:11:51,39.45,-86.18,Clear,clear sky,37.99,47,1,4.7,0.0,0.0
476,Kourou,GF,2020-02-23 03:11:51,5.16,-52.65,Clouds,overcast clouds,80.6,83,90,6.93,0.0,0.0
477,Kidal,ML,2020-02-23 03:05:59,18.44,1.41,Clouds,broken clouds,70.92,11,79,11.34,0.0,0.0
478,Alta Floresta,BR,2020-02-23 03:02:41,-9.88,-56.09,Rain,light rain,71.98,93,100,0.65,0.81,0.0
479,Vanderhoof,CA,2020-02-23 03:11:51,54.02,-124.02,Clouds,broken clouds,23.85,79,73,2.44,0.0,0.0
480,Naberera,TZ,2020-02-23 03:11:52,-4.2,36.93,Clouds,overcast clouds,65.95,92,100,5.12,0.0,0.0
481,Sisimiut,GL,2020-02-23 03:11:52,66.94,-53.67,Clouds,overcast clouds,-5.01,65,89,7.02,0.0,0.0
482,Cabinda,AO,2020-02-23 03:11:52,-5.55,12.2,Rain,moderate rain,83.5,84,100,16.58,3.06,0.0
483,Narsaq,GL,2020-02-23 03:11:52,60.92,-46.05,Snow,snow,21.2,85,100,1.12,0.0,0.0
484,Mala,PE,2020-02-23 03:08:51,-12.66,-76.63,Clouds,overcast clouds,68.22,74,100,2.59,0.0,0.0
485,Vestmannaeyjar,IS,2020-02-23 03:11:53,63.44,-20.27,Snow,light snow,39.42,55,74,25.41,0.0,1.06
486,Coruripe,BR,2020-02-23 03:11:53,-10.13,-36.18,Clouds,few clouds,80.92,82,15,12.37,0.0,0.0
487,Coquimbo,CL,2020-02-23 03:11:53,-29.95,-71.34,Clear,clear sky,60.8,82,1,4.7,0.0,0.0
488,Meshchovsk,RU,2020-02-23 03:11:53,54.32,35.28,Snow,light snow,32.74,96,100,23.4,0.0,1.0
489,Xining,CN,2020-02-23 03:11:54,36.62,101.77,Clouds,overcast clouds,37.06,16,100,4.59,0.0,0.0
490,Prenzlau,DE,2020-02-23 03:11:54,53.32,13.87,Rain,light rain,45.0,63,100,8.01,0.5,0.0
491,Adrar,MR,2020-02-23 03:11:54,20.5,-10.07,Clouds,overcast clouds,78.66,11,97,13.6,0.0,0.0
492,Syracuse,IT,2020-02-23 03:11:54,37.09,15.28,Clouds,overcast clouds,44.01,62,91,8.05,0.0,0.0
493,Birao,CF,2020-02-23 03:11:54,10.28,22.79,Clear,clear sky,69.33,13,0,12.68,0.0,0.0
494,Nadvoitsy,RU,2020-02-23 03:11:55,63.87,34.32,Snow,snow,32.77,96,100,17.63,0.0,1.69
495,Whitley Bay,GB,2020-02-23 03:11:55,55.04,-1.45,Rain,light rain,43.0,93,75,12.75,0.0,0.0
496,Bubaque,GW,2020-02-23 03:07:42,11.28,-15.83,Clouds,broken clouds,78.66,69,69,13.2,0.0,0.0
497,Sambava,MG,2020-02-23 03:08:06,-14.27,50.17,Clouds,overcast clouds,74.12,87,99,2.28,0.0,0.0
498,Dingle,PH,2020-02-23 03:07:51,11.0,122.67,Rain,light rain,81.34,69,24,15.93,0.13,0.0
499,Kholodnyy,RU,2020-02-23 03:11:56,62.72,147.95,Clouds,overcast clouds,-14.22,93,97,3.09,0.0,0.0
500,Assiniboia,CA,2020-02-23 03:07:15,49.63,-105.98,Clear,clear sky,24.94,93,1,20.8,0.0,0.0
501,Muros,ES,2020-02-23 03:11:56,42.78,-9.06,Fog,fog,53.01,100,90,2.24,0.0,0.0
502,Cuamba,MZ,2020-02-23 03:11:57,-14.8,36.54,Clouds,few clouds,68.77,97,22,1.07,0.0,0.0
503,Magistralnyy,RU,2020-02-23 03:11:57,56.17,107.45,Snow,light snow,18.55,84,100,4.23,0.0,0.19
504,Westport,US,2020-02-23 03:11:29,41.14,-73.36,Clear,clear sky,43.0,43,1,3.36,0.0,0.0
505,Omboue,GA,2020-02-23 03:11:57,-1.57,9.26,Clouds,overcast clouds,76.46,92,100,1.63,0.0,0.0
506,Moron,AR,2020-02-23 03:11:57,-34.65,-58.62,Clear,clear sky,66.2,77,0,5.82,0.0,0.0
507,Dandong,CN,2020-02-23 03:11:58,40.13,124.39,Clouds,scattered clouds,38.37,55,31,12.12,0.0,0.0
508,Quatre Cocos,MU,2020-02-23 03:07:40,-20.21,57.76,Rain,shower rain,75.99,100,40,2.24,0.0,0.0
509,Anshun,CN,2020-02-23 03:11:58,26.25,105.93,Clouds,overcast clouds,54.61,87,100,13.27,0.0,0.0
510,Bucerias,MX,2020-02-23 03:11:58,20.75,-105.33,Clouds,few clouds,78.8,83,20,6.93,0.0,0.0
511,Malm,NO,2020-02-23 03:11:59,64.07,11.22,Rain,light rain,39.0,93,75,26.4,0.0,0.0
512,Fort Nelson,CA,2020-02-23 03:11:59,58.81,-122.7,Clouds,scattered clouds,33.8,34,40,5.82,0.0,0.0
513,Hanstholm,DK,2020-02-23 03:11:59,57.12,8.62,Rain,light rain,42.01,79,97,31.0,0.13,0.0
514,Gondanglegi,ID,2020-02-23 03:11:59,-7.75,112.01,Clear,clear sky,85.06,68,0,3.36,0.0,0.0
515,Visaginas,LT,2020-02-23 03:12:00,55.6,26.42,Snow,light snow,37.56,74,100,18.57,0.0,1.19
516,Dalbandin,PK,2020-02-23 03:12:00,28.89,64.41,Clear,clear sky,60.26,40,0,3.65,0.0,0.0
517,Iqaluit,CA,2020-02-23 03:12:00,63.75,-68.51,Clouds,few clouds,-32.01,59,20,4.7,0.0,0.0
518,Jales,BR,2020-02-23 03:12:00,-20.27,-50.55,Rain,light rain,70.92,98,78,2.28,2.56,0.0
519,San Patricio,MX,2020-02-23 03:12:01,19.22,-104.7,Clear,clear sky,77.0,83,5,9.46,0.0,0.0
520,Bundaberg,AU,2020-02-23 03:08:48,-24.85,152.35,Rain,moderate rain,73.99,88,75,14.99,2.03,0.0
521,Limbang,MY,2020-02-23 03:12:01,4.75,115.0,Clouds,scattered clouds,86.0,66,40,5.82,0.0,0.0
522,Faya,SA,2020-02-23 03:12:02,18.39,42.45,Clouds,few clouds,57.2,58,18,9.17,0.0,0.0
523,Ust-Kuyga,RU,2020-02-23 03:12:02,70.02,135.6,Clouds,overcast clouds,-10.44,98,90,3.65,0.0,0.0
524,Meulaboh,ID,2020-02-23 03:12:02,4.14,96.13,Rain,light rain,81.5,74,17,7.11,1.44,0.0
525,Basco,PH,2020-02-23 03:12:02,20.45,121.97,Clear,clear sky,74.01,76,1,26.89,0.0,0.0
526,Mount Gambier,AU,2020-02-23 03:12:02,-37.83,140.77,Clear,clear sky,78.8,39,0,9.17,0.0,0.0
527,Saint-Pierre,RE,2020-02-23 03:12:03,-21.34,55.48,Clouds,overcast clouds,77.0,61,100,6.93,0.0,0.0
528,Mundo Nuevo,MX,2020-02-23 03:12:03,18.7,-95.5,Clouds,broken clouds,67.73,93,80,6.98,0.0,0.0
529,Ishigaki,JP,2020-02-23 03:12:03,24.34,124.16,Clouds,few clouds,73.4,69,20,19.46,0.0,0.0
530,Norrtalje,SE,2020-02-23 03:12:03,59.76,18.7,Clouds,broken clouds,42.01,74,75,19.46,0.0,0.0
531,Labrea,BR,2020-02-23 03:12:03,-7.26,-64.8,Rain,light rain,73.83,98,100,1.83,0.44,0.0
532,Marystown,CA,2020-02-23 03:12:04,47.17,-55.15,Snow,light snow,28.96,90,95,24.16,0.0,0.25
533,Ocampo,MX,2020-02-23 03:12:04,21.65,-101.5,Clouds,few clouds,59.49,43,12,2.86,0.0,0.0
534,Port Macquarie,AU,2020-02-23 03:08:55,-31.43,152.92,Clouds,scattered clouds,78.01,53,40,8.05,0.0,0.0
535,Grand-Couronne,FR,2020-02-23 03:12:04,49.36,1.01,Clouds,overcast clouds,51.01,93,90,13.87,0.0,0.0
536,Shirokiy,RU,2020-02-23 03:12:05,49.76,129.52,Clouds,broken clouds,11.23,86,55,3.56,0.0,0.0
537,Souillac,MU,2020-02-23 03:05:57,-20.52,57.52,Rain,shower rain,75.99,100,40,2.24,0.0,0.0
538,Kamaishi,JP,2020-02-23 03:12:05,39.27,141.88,Snow,light shower snow,37.4,74,75,10.29,0.0,0.0
539,Qaqortoq,GL,2020-02-23 03:12:05,60.72,-46.03,Snow,snow,21.2,85,100,1.12,0.0,0.0
540,Vicovu De Sus,RO,2020-02-23 03:12:06,47.93,25.68,Clouds,overcast clouds,41.0,56,100,14.99,0.0,0.0
541,Iracoubo,GF,2020-02-23 03:12:06,5.48,-53.2,Rain,light rain,79.18,86,98,18.48,0.25,0.0
542,Goure,NE,2020-02-23 03:12:06,13.98,10.27,Clear,clear sky,70.0,19,10,8.01,0.0,0.0
543,Vila Velha,BR,2020-02-23 03:07:11,-20.33,-40.29,Thunderstorm,thunderstorm,77.0,83,90,12.75,0.0,0.0
544,Karaman,TR,2020-02-23 03:12:06,37.08,33.25,Snow,light snow,32.14,95,99,5.26,0.0,0.38
545,Rovaniemi,FI,2020-02-23 03:12:07,66.5,25.72,Snow,light snow,32.0,98,90,4.7,0.0,0.0
546,Monrovia,LR,2020-02-23 03:12:07,6.3,-10.8,Mist,mist,77.0,94,20,6.13,0.0,0.0
547,Hanzhong,CN,2020-02-23 03:12:07,33.07,107.03,Clear,clear sky,54.79,53,0,2.68,0.0,0.0
548,Woodward,US,2020-02-23 03:12:08,36.43,-99.39,Clouds,broken clouds,52.0,57,75,11.41,0.0,0.0
549,Nemuro,JP,2020-02-23 03:07:30,43.32,145.57,Clouds,broken clouds,35.6,74,75,12.75,0.0,0.0
550,Raymond,US,2020-02-23 03:12:08,43.9,-70.47,Clear,clear sky,33.8,73,1,1.66,0.0,0.0
551,Shelburne,CA,2020-02-23 03:08:05,44.08,-80.2,Clear,clear sky,35.6,74,1,14.94,0.0,0.0
552,Jati,PK,2020-02-23 03:12:08,24.35,68.27,Clear,clear sky,69.46,37,0,8.37,0.0,0.0
553,Bol,TD,2020-02-23 03:12:09,13.46,14.71,Clear,clear sky,70.57,31,1,20.58,0.0,0.0
554,Puerto Rico,AR,2020-02-23 03:12:09,-26.8,-55.02,Clear,clear sky,55.02,60,1,2.73,0.0,0.0
555,Steinbach,DE,2020-02-23 03:12:09,50.17,8.57,Rain,light rain,51.01,87,90,13.87,0.0,0.0
556,Upanema,BR,2020-02-23 03:12:09,-5.64,-37.26,Rain,light rain,77.85,90,100,6.06,1.06,0.0
557,Inongo,CD,2020-02-23 03:12:10,-1.95,18.27,Clouds,scattered clouds,75.4,82,45,3.13,0.0,0.0
558,Taltal,CL,2020-02-23 03:12:10,-25.4,-70.48,Clouds,few clouds,60.51,85,22,1.5,0.0,0.0
559,Krasnyy Luch,UA,2020-02-23 03:12:10,48.14,38.94,Clouds,overcast clouds,33.31,99,100,6.46,0.0,0.0
560,Margate,GB,2020-02-23 03:12:10,51.38,1.39,Rain,light rain,51.01,87,40,13.87,0.0,0.0
561,Shimoda,JP,2020-02-23 03:12:10,34.67,138.95,Clouds,few clouds,59.0,50,20,17.22,0.0,0.0
562,Ozernovskiy,RU,2020-02-23 03:12:11,51.5,156.52,Clouds,broken clouds,22.32,53,71,3.94,0.0,0.0
563,Acapulco,MX,2020-02-23 03:09:20,16.86,-99.89,Clear,clear sky,80.6,88,5,8.05,0.0,0.0
564,America Dourada,BR,2020-02-23 03:12:11,-11.46,-41.44,Rain,light rain,71.2,86,97,3.31,1.0,0.0
565,Stanghelle,NO,2020-02-23 03:12:12,60.55,5.74,Snow,light snow,41.0,94,92,1.01,0.0,0.94
566,Inta,RU,2020-02-23 03:12:12,66.03,60.17,Snow,light snow,31.14,89,100,22.7,0.0,0.13
567,Igarka,RU,2020-02-23 03:12:12,67.47,86.58,Clouds,overcast clouds,5.2,93,100,16.15,0.0,0.0
568,Mehamn,NO,2020-02-23 03:12:12,71.04,27.85,Clear,clear sky,25.92,86,0,11.97,0.0,0.0
569,Pangai,TO,2020-02-23 03:12:12,-19.8,-174.35,Rain,light rain,80.29,85,33,19.37,1.63,0.0
570,Aklavik,CA,2020-02-23 03:12:02,68.22,-135.01,Snow,light snow,-0.4,77,90,3.36,0.0,0.0
571,Taperoa,BR,2020-02-23 03:12:13,-7.21,-36.83,Rain,light rain,76.86,83,98,5.32,0.88,0.0
572,Encruzilhada,BR,2020-02-23 03:12:13,-15.53,-40.91,Rain,light rain,68.63,93,100,1.88,2.81,0.0
573,Hofn,IS,2020-02-23 03:12:13,64.25,-15.21,Snow,light snow,30.97,94,100,3.62,0.0,0.56
574,Jumla,NP,2020-02-23 03:12:13,29.27,82.18,Clouds,scattered clouds,36.75,48,41,3.11,0.0,0.0
575,Remedios,CU,2020-02-23 03:12:14,22.49,-79.55,Clouds,broken clouds,69.8,83,75,8.05,0.0,0.0
